,Country,Cloudiness,Humidity,Date,Latitude,Longitude,Max Temp,Wind Speed,City
0,PF,1,71,1616429119,-23.1203,-134.9692,26.57,3.23,rikitea
1,MX,1,55,1616429165,27.9769,-114.0611,15.5,4.93,guerrero negro
2,CK,75,89,1616429188,-21.2078,-159.775,26.0,2.06,avarua
3,CA,40,75,1616428677,65.282,-126.8329,-33.0,0.47,norman wells
4,US,90,100,1616429191,37.0431,-100.921,6.0,5.14,liberal
5,US,1,45,1616429192,37.1041,-113.5841,8.89,1.54,saint george
6,AU,58,86,1616429193,-33.65,115.3333,9.44,5.33,busselton
7,CN,0,23,1616429195,37.4564,118.4856,11.26,4.93,dongying
8,TO,20,83,1616429196,-21.2,-175.2,24.0,4.63,vaini
9,US,0,24,1616429095,42.6001,-73.9662,14.44,1.48,albany
10,US,90,54,1616429099,44.8342,-87.377,16.0,4.12,sturgeon bay
11,AR,40,67,1616428920,-54.8,-68.3,13.0,1.54,ushuaia
12,RU,56,75,1616429201,48.2256,46.7217,1.78,4.82,verkhniy baskunchak
13,AU,90,94,1616429203,-37.8333,140.7667,17.0,1.54,mount gambier
14,RU,5,54,1616429204,68.75,161.3,-22.57,2.37,cherskiy
15,CL,75,59,1616429205,-53.15,-70.9167,16.0,10.8,punta arenas
16,AU,76,67,1616429207,-42.7826,147.0587,15.0,0.54,new norfolk
17,CL,6,74,1616429208,-37.6167,-73.65,16.82,3.89,lebu
18,CN,75,72,1616429210,46.6406,126.9969,0.33,5.53,suihua
19,US,75,60,1616429047,29.9147,-90.054,21.11,1.54,gretna
20,BR,20,61,1616429212,-8.0089,-34.8553,29.0,5.14,olinda
21,RE,0,74,1616429213,-21.3585,55.7679,28.0,2.57,saint-philippe
22,SB,34,86,1616429215,-8.7676,160.7034,25.05,1.4,auki
23,AU,19,77,1616429216,-32.5,137.7667,19.0,2.06,port augusta
24,FI,27,87,1616429217,66.7131,27.4306,-5.66,2.2,kemijarvi
25,MG,77,84,1616429219,-21.6667,45.1667,25.2,3.68,beroroha
26,US,1,24,1616429132,42.097,-79.2353,15.56,4.77,jamestown
27,BR,27,71,1616429221,-24.7911,-50.0119,25.65,1.85,castro
28,CL,0,56,1616429174,-29.9533,-71.3436,20.0,6.69,coquimbo
29,LK,67,87,1616429149,5.9485,80.5353,25.96,2.97,matara
30,AU,100,94,1616429225,-17.0,145.4333,23.0,0.26,mareeba
31,RU,100,96,1616429226,69.4865,88.3972,-18.3,3.27,talnakh
32,EC,75,70,1616429109,-0.7393,-90.3518,30.0,6.17,puerto ayora
33,US,40,88,1616429121,19.7297,-155.09,19.0,2.06,hilo
34,EC,75,67,1616429230,0.05,-78.1333,17.0,1.03,cayambe
35,US,1,25,1616429231,41.3712,-73.414,15.0,2.57,bethel
36,US,1,64,1616429233,22.0752,-159.319,21.11,6.69,kapaa
37,GF,75,94,1616429234,4.9333,-52.3333,27.22,2.06,cayenne
38,ZA,0,64,1616429101,-33.918,25.5701,21.0,4.12,port elizabeth
39,SB,86,73,1616429237,-8.103,156.8419,28.05,1.91,gizo
40,AU,40,82,1616429238,-42.8794,147.3294,15.0,2.5,hobart
41,US,1,86,1616429239,40.5219,-111.9391,3.33,7.2,riverton
42,ZA,0,66,1616429241,-34.4187,19.2345,22.22,4.92,hermanus
43,GL,75,73,1616428691,64.1835,-51.7216,-7.0,3.6,nuuk
44,PT,40,55,1616429243,32.6667,-17.1,18.0,6.69,ponta do sol
45,PF,92,77,1616429244,-9.8,-139.0333,26.64,8.53,atuona
46,NZ,64,83,1616429246,-35.1667,173.1667,13.87,1.85,ahipara
47,OM,0,61,1616429247,17.0151,54.0924,29.0,2.57,salalah
48,US,20,71,1616429249,64.5011,-165.4064,-18.0,6.69,nome
49,AU,0,79,1616429250,-34.7333,135.8667,19.22,1.93,port lincoln
50,RU,75,76,1616429252,70.6333,147.9167,-27.02,1.62,chokurdakh
51,US,90,94,1616429115,34.8791,-76.9013,14.44,7.2,havelock
52,US,1,69,1616429254,71.2906,-156.7887,-29.0,5.14,barrow
53,CA,75,46,1616429256,47.6666,-52.7314,9.0,9.26,torbay
54,CA,90,93,1616429257,50.6996,-127.4199,5.0,3.09,port hardy
55,ZA,0,44,1616429000,-33.9258,18.4232,27.0,6.69,cape town
56,US,75,100,1616429260,39.7555,-105.2211,2.22,1.92,golden
57,FO,75,100,1616429262,62.1564,-7.1664,8.0,4.63,vestmanna
58,US,20,83,1616429263,64.8569,-147.8028,-18.0,2.06,college
59,RU,14,83,1616429265,64.3833,-173.3,-20.76,2.17,provideniya
60,MX,1,79,1616429266,15.85,-97.0667,29.0,4.63,puerto escondido
61,AU,90,94,1616429267,-30.3,153.1333,19.0,5.27,coffs harbour
62,NZ,86,97,1616429269,-46.6,168.3333,11.67,0.45,bluff
63,SA,0,52,1616429270,18.2164,42.5053,24.0,3.09,abha
64,RU,100,71,1616429272,49.6333,117.3167,1.14,9.4,zabaykalsk
65,PT,40,72,1616429273,38.5167,-28.7,17.0,7.2,ribeira grande
66,ID,97,85,1616429275,-9.6567,120.2641,26.17,2.15,waingapu
67,VN,3,73,1616429276,9.285,105.7244,27.52,10.23,bac lieu
68,UY,43,69,1616429278,-33.6971,-53.4616,22.44,5.08,chuy
69,BG,90,93,1616429279,43.4333,28.3333,2.0,9.77,kavarna
70,NZ,81,97,1616429280,-46.1927,168.8643,11.67,0.45,mataura
71,GP,75,58,1616429282,16.0202,-61.7463,29.0,5.66,baillif
72,SA,0,49,1616429283,25.0213,37.2685,28.86,6.15,umm lajj
73,GL,98,97,1616429284,77.484,-69.3632,-22.99,0.75,qaanaaq
74,GL,100,88,1616429286,72.7868,-56.1549,-21.2,1.8,upernavik
75,GL,40,68,1616429287,65.6145,-37.6368,-6.0,8.23,tasiilaq
76,CA,90,79,1616429289,58.8053,-122.7002,-12.0,4.12,fort nelson
77,MX,75,25,1616429114,22.8909,-109.9124,26.0,7.72,cabo san lucas
78,RU,0,98,1616429291,71.9167,114.0833,-34.12,2.86,saskylakh
79,ZA,0,53,1616429293,-34.5322,20.0403,23.0,8.23,bredasdorp
80,US,90,87,1616429131,37.0058,-121.5683,7.22,0.96,gilroy
81,US,1,26,1616429295,42.2506,-75.833,14.44,3.09,broome
82,PT,59,80,1616429297,39.05,-27.9833,15.08,6.38,lagoa
83,RU,100,99,1616429298,69.3,139.9,-26.31,0.57,deputatskiy
84,ZA,4,66,1616429299,-33.5906,26.891,19.62,4.37,port alfred
85,PG,76,77,1616429301,-2.5744,150.7967,27.89,3.37,kavieng
86,US,90,71,1616429302,36.6177,-121.9166,11.11,2.06,pacific grove
87,RU,100,94,1616429303,60.6308,47.2512,-0.93,4.5,luza
88,JP,40,51,1616429306,26.1247,127.6694,16.0,6.17,itoman
89,KG,100,63,1616429307,41.1702,75.8106,0.15,1.98,at-bashi
90,KI,68,79,1616429309,3.0707,172.7902,27.65,6.94,butaritari
91,SA,0,10,1616429030,24.6877,46.7219,33.0,2.57,riyadh
92,CU,40,69,1616429311,20.5603,-76.9161,27.0,1.03,rio cauto
93,ZA,20,60,1616429305,-33.0153,27.9116,22.0,4.12,east london
94,RU,93,83,1616429314,65.5833,-171.0,-21.02,2.22,lavrentiya
95,PE,0,54,1616429102,-13.7,-76.2167,27.0,9.26,pisco
96,RU,100,95,1616429316,59.6289,112.7406,-21.91,1.6,peleduy
97,MY,20,74,1616429219,5.4112,100.3354,29.0,2.57,georgetown
98,US,75,60,1616429319,28.017,-97.5169,24.0,11.83,san patricio
99,RU,0,54,1616429320,68.0546,166.4372,-26.99,1.54,bilibino
100,US,90,86,1616429321,57.79,-152.4072,-1.0,1.54,kodiak
101,MV,48,73,1616429323,-0.6,73.0833,28.85,4.94,hithadhoo
102,US,1,29,1616429324,42.6,-84.3833,18.0,5.66,ingham
103,AU,40,100,1616429326,-35.35,150.4667,17.22,2.57,ulladulla
104,GB,54,64,1616429272,51.3813,1.3862,11.11,0.45,margate
105,GF,60,92,1616429328,5.155,-54.3472,26.91,1.64,apatou
106,FO,79,88,1616429330,61.4732,-6.8119,8.34,12.64,vagur
107,US,90,81,1616428919,45.5234,-122.6762,7.0,3.33,portland
108,MZ,100,81,1616429332,-16.2325,39.9086,26.67,3.93,angoche
109,BR,40,62,1616429334,-20.3297,-40.2925,31.11,4.63,vila velha
110,BR,100,74,1616429335,-30.1811,-50.2056,23.57,4.36,cidreira
111,IN,0,76,1616429336,14.9167,79.9833,25.35,3.45,kavali
112,AU,100,96,1616429338,-34.5833,150.8552,19.44,1.34,flinders
113,MU,40,83,1616429339,-20.4081,57.7,27.0,3.09,mahebourg
114,CA,75,80,1616429340,50.1001,-91.917,-1.0,4.63,sioux lookout
115,RU,19,86,1616429342,64.571,30.5767,-6.59,2.68,kostomuksha
116,BF,7,10,1616429286,12.0708,1.7889,41.45,1.84,diapaga
117,NC,22,75,1616429385,-20.2333,164.0167,25.87,6.09,poum
118,NZ,93,93,1616429386,-46.2817,169.8464,10.81,1.4,kaitangata
119,RU,100,91,1616429388,53.9599,81.2093,1.05,5.64,krutikha
120,AU,90,73,1616429389,-28.7667,114.6,21.0,5.66,geraldton
121,US,40,60,1616429390,29.4608,-95.0513,21.67,6.69,dickinson
122,BS,92,63,1616429126,26.5412,-77.0636,23.73,5.37,marsh harbour
123,RU,100,98,1616429393,71.6872,128.8694,-29.11,3.03,tiksi
124,PH,77,85,1616429394,10.9995,122.6711,25.72,4.69,dingle
125,CN,22,71,1616429396,43.5833,127.5667,-0.97,2.1,baishishan
126,MU,40,83,1616429397,-20.5167,57.5167,27.0,3.09,souillac
127,RO,100,42,1616429399,46.4333,26.4,3.33,2.86,asau
128,NO,75,93,1616429400,66.4043,14.5233,3.33,1.03,storforshei
129,RU,0,88,1616429402,69.7008,170.3133,-29.73,1.89,pevek
130,BR,0,58,1616429205,-22.9661,-42.0278,34.0,6.17,arraial do cabo
131,CN,88,27,1616429404,42.8,93.45,7.34,1.28,hami
132,AU,0,78,1616429405,-24.8667,113.6333,25.0,9.26,carnarvon
133,CL,0,57,1616429407,-35.3333,-72.4167,20.23,3.07,constitucion
134,RU,64,87,1616429408,68.0531,39.5131,-5.25,6.36,ostrovnoy
135,PG,45,79,1616429409,-3.6667,152.4333,26.47,2.85,namatanai
136,CA,40,61,1616429411,55.7435,-97.8558,-12.0,4.12,thompson
137,US,90,93,1616429412,43.4065,-124.2243,9.0,6.69,north bend
138,CA,57,30,1616429414,43.7501,-81.7165,14.0,6.17,goderich
139,AU,0,91,1616429415,-38.2667,141.9667,16.3,3.25,codrington
140,LY,99,7,1616429417,29.0331,21.5482,37.06,11.08,jalu
141,US,1,65,1616429301,64.8378,-147.7164,-18.0,1.2,fairbanks
142,RU,100,87,1616429421,63.9061,38.1404,-3.55,4.99,onega
143,CA,1,63,1616429423,62.456,-114.3525,-27.78,3.09,yellowknife
144,RU,41,84,1616429424,54.3,110.3,-3.48,2.77,kurumkan
145,MZ,12,81,1616429425,-24.7117,33.8828,22.97,3.84,manjacaze
146,ID,99,87,1616429427,-1.3959,120.7524,25.49,2.47,poso
147,US,90,93,1616429428,40.5982,-124.1573,7.78,3.09,fortuna
148,ID,90,88,1616429342,-8.6136,120.4721,17.67,0.73,ruteng
149,CA,75,45,1616429431,50.2001,-66.3821,6.0,3.09,sept-iles
150,EG,99,28,1616429222,29.9737,32.5263,29.31,6.64,suez
151,PT,40,72,1616429433,37.7167,-25.4333,16.0,4.12,vila franca do campo
152,PT,40,82,1616429435,38.7333,-27.0667,17.0,5.18,praia da vitoria
153,CA,1,76,1616429437,69.4541,-133.0374,-31.0,2.57,tuktoyaktuk
154,RU,100,73,1616429438,73.5069,80.5464,-22.65,0.96,dikson
155,BR,11,57,1616429440,-17.7125,-39.2481,29.8,3.2,caravelas
156,RU,56,96,1616429442,64.4803,76.6897,-17.11,4.38,purpe
157,HK,7,63,1616429256,22.2855,114.1577,18.33,0.45,victoria
158,KE,71,54,1616429444,1.0968,36.698,19.96,7.15,maralal
159,GL,90,85,1616429446,69.2167,-51.1,-14.0,5.66,ilulissat
160,NO,75,93,1616429447,69.2296,17.9811,-1.0,3.09,finnsnes
161,ES,50,38,1616429449,39.9635,-4.8308,17.78,1.32,talavera de la reina
162,ET,83,23,1616429450,10.7,37.0667,24.0,1.79,bure
163,AR,20,63,1616429159,-38.0023,-57.5575,19.0,2.06,mar del plata
164,US,20,60,1616429192,29.0339,-95.4344,22.22,9.26,lake jackson
165,RU,100,95,1616429454,65.8522,44.24,-7.26,2.99,mezen
166,BB,40,54,1616429455,13.2167,-59.5167,29.0,10.29,bathsheba
167,EG,91,17,1616429457,28.419,30.7792,32.89,4.24,matay
168,BR,75,88,1616429458,-12.7406,-60.1458,23.0,1.03,vilhena
169,CA,39,71,1616429460,60.7522,-137.5108,-18.0,0.51,haines junction
170,PG,71,75,1616429461,-2.0226,147.2712,28.25,1.81,lorengau
171,ZM,85,70,1616429463,-9.3451,28.734,23.79,1.03,nchelenge
172,CN,0,50,1616429464,33.4474,112.7142,8.38,2.96,yunyang
173,JP,75,87,1616429466,35.7333,140.8333,6.0,3.09,hasaki
174,CN,1,62,1616429351,47.8667,88.1167,-1.92,2.01,altay
175,US,90,87,1616429468,57.0531,-135.33,3.0,1.27,sitka
176,CD,97,74,1616429183,2.7388,23.7833,25.75,1.19,aketi
177,CN,7,78,1616429471,27.8964,102.2634,9.01,2.06,xichang
178,CA,75,46,1616429472,47.5999,-53.2648,9.0,9.26,bay roberts
179,MN,98,29,1616429474,45.7625,106.2708,1.71,5.05,mandalgovi
180,MX,1,49,1616429475,20.7,-105.2,23.0,1.3,ixtapa
181,AU,90,94,1616429477,-25.2406,130.9889,21.0,3.6,yulara
182,OM,0,26,1616429478,22.9333,57.5333,24.84,4.9,nizwa
183,RU,83,100,1616429481,66.3167,-179.1667,-27.12,0.58,egvekinot
184,RU,84,88,1616429482,50.3643,108.7512,-2.89,0.75,krasnyy chikoy
185,AI,40,65,1616429484,18.217,-63.0578,29.0,7.72,the valley
186,CN,0,45,1616429485,35.405,116.5814,8.14,4.46,jining
187,RU,100,84,1616429487,50.6789,156.125,-0.43,8.69,severo-kurilsk
188,NZ,100,97,1616429488,-46.1333,167.6833,11.67,0.45,tuatapere
189,ZA,60,50,1616429489,-25.863,26.8976,20.89,1.05,koster
190,MG,52,84,1616429491,-25.1667,45.05,24.62,2.37,beloha
191,NO,75,60,1616429492,69.8,20.9333,1.0,3.09,sorkjosen
192,TR,51,72,1616429422,39.6603,35.8836,9.87,6.36,akdagmadeni
193,TD,47,17,1616429495,9.4515,18.9449,39.0,1.78,kyabe
194,GF,100,93,1616429497,5.3833,-52.95,24.67,6.6,sinnamary
195,CV,0,72,1616429498,14.8961,-24.4956,21.81,5.38,sao filipe
196,MX,0,78,1616429500,31.7167,-116.5667,12.78,0.45,maneadero
197,CN,100,65,1616429501,29.5623,103.7639,13.45,1.17,leshan
198,ZM,31,87,1616429502,-15.7504,26.4384,22.85,1.78,namwala
199,EG,75,40,1616429504,31.2156,29.9553,23.0,4.12,alexandria
200,RU,73,98,1616429505,63.2842,118.3319,-29.46,1.5,nyurba
201,NA,0,60,1616429507,-28.55,16.4333,21.35,4.44,oranjemund
202,RU,100,95,1616429508,67.5447,133.385,-21.92,2.2,verkhoyansk
203,CN,78,68,1616429510,30.8039,108.3897,13.32,0.35,wanxian
204,CA,90,73,1616429511,55.2834,-114.769,-6.0,3.6,slave lake
205,RU,14,91,1616429512,58.1286,68.5944,-8.35,2.1,abalak
206,TZ,35,74,1616429514,-7.9139,39.6668,28.89,4.29,kilindoni
207,BR,0,55,1616429304,-21.6403,-41.0511,31.0,3.09,sao joao da barra
208,RU,99,94,1616429517,52.371,84.3873,1.72,3.33,bystryy istok
209,US,40,62,1616429373,45.1805,-89.6835,12.0,2.57,merrill
210,CN,0,21,1616429519,39.2342,106.3439,5.55,2.74,shitanjing
211,US,1,66,1616429521,33.4936,-117.1484,13.89,0.53,temecula
212,TZ,75,44,1616429523,-3.3333,36.8,32.0,5.14,poli
213,LR,97,78,1616429524,6.7533,-11.3686,25.19,4.97,robertsport
214,SJ,75,73,1616429526,78.2186,15.6401,-10.0,5.66,longyearbyen
215,AO,75,53,1616429528,-12.3833,16.9333,25.0,3.6,kuito
216,AU,100,95,1616429529,-37.8811,147.981,17.22,0.89,lakes entrance
217,NA,5,64,1616429531,-26.6481,15.1594,21.29,1.5,luderitz
218,BR,40,70,1616429348,-4.2761,-55.9836,30.0,2.57,itaituba
219,JP,94,60,1616429534,35.1333,140.3,8.89,6.64,katsuura
220,AU,100,89,1616429535,-41.0667,145.9167,14.44,5.36,burnie
221,EG,0,27,1616429536,31.3525,27.2453,23.0,5.14,marsa matruh
222,CA,1,64,1616429502,48.5999,-93.4003,2.0,4.12,fort frances
223,ID,100,87,1616429539,-3.8004,102.2655,24.84,1.46,bengkulu
224,ES,0,54,1616429540,42.7762,-9.0603,20.56,1.66,muros
225,NE,0,7,1616429542,14.5106,6.765,40.73,3.22,dakoro
226,AU,75,100,1616429543,-32.25,148.6167,16.0,6.69,dubbo
227,RU,90,100,1616429544,53.0452,158.6483,1.0,7.0,petropavlovsk-kamchatskiy
228,CN,0,12,1616429423,38.4953,102.1739,8.69,2.68,jinchang
229,CN,98,76,1616429548,18.8003,110.3967,19.67,5.03,wanning
230,TO,20,94,1616429549,-18.65,-173.9833,23.0,2.29,neiafu
231,PT,40,72,1616429551,37.8,-25.5833,16.0,4.12,rabo de peixe
232,CD,3,64,1616429428,-5.35,21.4167,27.43,0.77,luebo
233,MX,52,55,1616429553,30.4833,-115.95,14.41,2.33,san quintin
234,MX,59,53,1616429555,23.1667,-97.95,25.0,1.34,nuevo progreso
235,ZA,20,72,1616429556,-33.963,22.4617,19.0,6.17,george
236,DE,75,60,1616429557,50.3167,11.9167,4.44,2.57,hof
237,RU,100,95,1616429559,61.3833,152.75,-11.76,3.53,talaya
238,RU,100,86,1616429560,52.5844,32.7633,-1.66,3.33,starodub
239,ES,20,49,1616429562,27.9054,-15.4461,20.0,7.72,aguimes
240,AU,90,94,1616429563,-31.95,141.4333,18.0,4.12,broken hill
241,BG,100,91,1616429357,42.3333,23.55,0.56,2.22,samokov
242,SE,0,74,1616429419,65.3172,21.4794,-1.0,2.57,pitea
243,TL,75,92,1616429280,-8.9266,125.4092,16.6,0.15,airai
244,CN,71,14,1616429568,40.2833,97.2,7.44,8.49,yumen
245,SO,44,69,1616429569,11.2842,49.1816,25.36,0.93,bosaso
246,JP,0,82,1616429301,42.975,144.3747,0.38,4.45,kushiro
247,IS,97,60,1616429572,64.8945,-23.7142,2.48,18.04,olafsvik
248,RU,100,96,1616429573,61.67,96.37,-9.98,0.38,baykit
249,AO,90,73,1616429575,-15.1961,12.1522,26.0,6.69,namibe
250,US,20,30,1616429576,42.1584,-72.3287,15.0,2.57,palmer
251,ML,0,8,1616429577,22.6783,-3.9836,27.85,6.88,taoudenni
252,US,0,23,1616429579,40.854,-74.8291,15.0,1.54,hackettstown
253,MN,100,55,1616429582,48.8125,103.5347,-0.07,1.75,bulgan
254,US,20,56,1616429584,32.296,-81.2354,20.0,5.14,rincon
255,NA,5,87,1616429587,-22.116,14.2845,17.78,0.89,henties bay
256,RU,99,98,1616429588,63.9242,127.4739,-28.37,2.11,sangar
257,RU,68,81,1616429590,50.2981,103.3097,-3.92,1.53,kholtoson
258,AU,98,94,1616429591,-20.0167,148.2333,24.0,1.51,bowen
259,RU,90,100,1616429593,54.9159,85.6385,0.0,3.0,promyshlennaya
260,BR,75,70,1616429594,-5.1989,-35.4608,29.0,6.17,touros
261,AO,97,88,1616429595,-10.7073,22.2247,23.05,0.91,luau
262,AO,100,86,1616429597,-11.7833,19.9167,22.29,1.19,luena
263,KZ,0,66,1616429598,44.5086,50.263,4.19,2.91,fort-shevchenko
264,PR,7,58,1616429364,18.073,-66.6185,28.33,5.36,ponce
265,ID,4,76,1616429601,-8.4667,140.3333,25.46,0.52,merauke
266,JP,3,67,1616429602,39.2667,141.8833,3.03,3.41,kamaishi
267,IS,90,70,1616429603,64.2539,-15.2082,5.0,11.83,hofn
268,PT,40,72,1616429605,37.7333,-25.6667,16.0,4.12,ponta delgada
269,RU,100,75,1616429606,51.3223,42.7678,2.22,3.47,kamenka
270,PF,5,78,1616429608,-16.4833,-151.75,28.06,6.28,faanui
271,JP,28,72,1616429609,24.8,125.2833,16.63,10.02,hirara
272,US,1,39,1616429610,41.5284,-87.4237,16.11,6.69,griffith
273,RU,60,96,1616429612,56.8479,124.9104,-24.81,3.11,chulman
274,RU,100,79,1616429613,65.9811,60.3094,-7.5,3.66,verkhnyaya inta
275,RU,20,62,1616429615,45.9241,47.0474,5.19,6.71,zenzeli
276,GL,20,50,1616429616,60.9167,-46.05,-3.0,0.51,narsaq
277,ZM,73,92,1616429617,-12.529,27.8838,20.38,1.88,chingola
278,RU,62,85,1616429619,50.147,48.5704,-0.28,4.97,aleksandrov gay
279,MY,100,83,1616429620,2.4312,103.8405,28.0,3.35,mersing
280,RO,75,45,1616429621,46.3667,26.4833,6.0,7.72,darmanesti
281,CA,95,68,1616429623,55.1001,-105.2842,-7.0,4.12,la ronge
282,IR,0,13,1616429624,31.6128,55.4107,20.3,0.55,bafq
283,IL,100,60,1616429626,32.8156,34.9892,23.0,3.09,haifa
284,RU,100,96,1616429627,60.34,102.2797,-14.87,1.86,vanavara
285,US,40,60,1616429628,21.4447,-157.8378,22.0,6.17,ahuimanu
286,RU,100,86,1616429630,43.4456,41.7448,4.08,5.08,teberda
287,NZ,17,94,1616429631,-45.4167,167.7167,11.08,0.09,te anau
288,RU,70,95,1616429633,61.1333,74.8167,-9.65,2.66,lokosovo
289,KZ,34,95,1616429634,51.8,68.3333,-10.38,3.07,atbasar
290,IR,75,71,1616429635,37.4747,57.329,9.0,3.09,bojnurd
291,MX,1,71,1616429637,32.3333,-117.0333,12.0,2.06,rosarito
292,PL,0,45,1616429639,52.2298,21.0118,5.56,5.66,warsaw
293,AW,20,61,1616429634,12.524,-70.027,29.0,10.8,oranjestad
294,RU,79,80,1616429642,71.9667,102.5,-25.31,5.52,khatanga
295,BD,0,54,1616429643,23.9202,90.2109,29.0,1.67,dhamrai
296,KM,45,64,1616429644,-12.28,43.7425,29.46,2.27,fomboni
297,CA,90,93,1616429520,52.9999,-122.5029,0.0,1.54,quesnel
298,RU,20,51,1616429647,59.7035,30.7861,0.0,5.0,nikolskoye
299,RU,56,81,1616429648,43.0645,44.7417,4.0,5.0,oktyabrskoye
300,CN,40,59,1616429649,31.6836,112.0044,11.23,4.18,wuan
301,PG,16,86,1616429651,-9.0763,143.2092,26.65,2.09,daru
302,NO,50,82,1616429652,59.1,9.5667,7.78,0.89,herre
303,NO,0,68,1616429654,70.3705,31.1107,-3.0,3.6,vardo
304,PF,20,78,1616429655,-17.7333,-149.15,26.0,2.06,tautira
305,GL,89,64,1616429656,61.994,-49.6678,-6.59,0.97,paamiut
306,US,1,45,1616429658,33.1812,-102.2744,20.0,8.75,brownfield
307,GF,67,87,1616429659,3.1655,-52.3158,27.8,1.75,camopi
308,US,40,100,1616429660,20.8947,-156.47,20.0,2.06,kahului
309,ID,100,97,1616429662,-2.5333,112.95,23.62,1.04,sampit
310,RE,0,78,1616429663,-21.3667,55.6167,28.0,3.6,saint-joseph
311,US,1,66,1616429664,45.0205,-93.218,11.0,2.06,saint anthony
312,AU,12,85,1616429666,-35.5667,138.6167,18.33,1.94,victor harbor
313,RU,100,95,1616429531,59.4511,112.5578,-21.24,1.44,vitim
314,ZA,0,23,1616429668,-33.0117,17.9442,31.0,6.17,saldanha
315,NO,0,55,1616429670,69.4719,25.5112,-1.0,6.69,karasjok
316,LY,37,25,1616429671,30.3333,10.85,14.56,7.88,nalut
317,US,66,49,1616429672,40.5489,-84.5702,17.22,2.68,celina
318,CN,0,54,1616429674,32.4586,114.0486,8.79,2.86,minggang
319,ID,100,85,1616429675,4.1363,96.1285,25.98,1.52,meulaboh
320,RU,100,96,1616429677,69.3497,87.7602,-18.17,2.64,kayerkan
321,ID,100,91,1616429678,-3.3667,135.4833,24.33,2.38,nabire
322,IN,0,69,1616429680,10.5669,72.642,28.64,3.25,kavaratti
323,ID,29,82,1616429681,-10.1667,123.5833,26.2,1.26,kupang
324,BO,75,69,1616429682,-20.4167,-63.2833,24.0,2.11,boyuibe
325,BR,100,78,1616429684,-3.3336,-43.5283,28.37,1.59,sao benedito do rio preto
326,RU,31,75,1616429685,42.1704,47.1161,1.61,3.77,kumukh
327,US,1,44,1616429687,44.3876,-68.2039,14.44,2.57,bar harbor
328,NO,40,80,1616429688,71.0357,27.8492,-2.0,7.72,mehamn
329,NO,40,69,1616429689,70.9963,24.6622,-1.0,8.23,havoysund
330,GA,97,80,1616429691,-3.432,10.6554,25.89,2.83,mayumba
331,RU,100,82,1616429692,59.3833,143.3,-9.27,8.52,okhotsk
332,IN,42,20,1616429693,20.635,82.0614,27.59,0.66,gariaband
333,CA,1,70,1616429695,66.1451,-65.7125,-26.0,1.87,pangnirtung
334,GT,0,44,1616429696,14.1,-89.75,28.0,1.54,jerez
335,AU,8,74,1616429698,-33.3667,116.15,11.94,3.17,collie
336,UA,0,48,1616429699,47.6525,35.2539,5.0,1.33,malokaterynivka
337,ES,0,58,1616429700,43.2686,-7.5406,16.11,4.92,bereda
338,DK,75,81,1616429702,55.2464,9.306,7.0,6.17,vojens
339,US,90,72,1616429444,29.6516,-82.3248,18.89,4.63,gainesville
340,RU,75,77,1616429532,51.9833,116.5833,-3.33,2.5,nerchinsk
341,RU,98,97,1616429531,70.0167,135.6,-27.1,2.78,ust-kuyga
342,ML,60,11,1616429707,18.9048,-3.5265,32.6,5.66,araouane
343,GL,10,66,1616429709,60.1432,-45.2371,-4.02,7.94,nanortalik
344,CD,88,66,1616429710,-4.05,19.5333,27.27,0.67,mangai
345,VE,40,54,1616429712,7.7669,-72.225,28.0,3.6,san cristobal
346,AU,75,69,1616429713,-20.7333,139.5,27.0,2.57,mount isa
347,PK,40,73,1616429714,24.9056,67.0822,26.0,4.63,karachi
348,PG,100,80,1616429716,-6.2167,155.6333,26.28,0.74,kieta
349,AU,75,100,1616429717,-31.4333,152.9167,19.0,4.12,port macquarie
350,US,90,93,1616429544,36.6828,-101.4816,6.0,6.69,guymon
351,ID,97,84,1616429720,-3.3333,128.9167,26.7,1.31,amahai
352,ID,88,80,1616429721,5.5577,95.3222,27.35,2.98,banda aceh
353,ML,0,12,1616429722,18.4411,1.4078,36.04,5.48,kidal
354,US,1,52,1616429724,33.229,-87.5772,19.0,5.14,northport
355,JP,31,82,1616429725,37.65,139.8667,5.0,2.32,kitakata
356,RU,100,86,1616429727,59.5833,151.2833,-10.57,12.06,ola
357,VE,62,55,1616429728,5.6639,-67.6236,31.27,2.19,puerto ayacucho
358,FO,75,100,1616429730,62.2266,-6.589,8.0,4.63,klaksvik
359,US,1,59,1616429731,37.3834,-89.7168,16.11,4.12,cape girardeau
360,RU,86,98,1616429531,63.4453,120.3167,-27.87,2.04,verkhnevilyuysk
361,UA,100,56,1616429734,48.682,37.5327,3.56,0.61,krasnotorka
362,BR,75,79,1616429457,-3.3542,-64.7114,30.0,1.54,tefe
363,RU,96,99,1616429736,64.5667,143.2,-21.18,3.06,ust-nera
364,MX,0,41,1616429737,16.1667,-95.2,29.87,1.75,salina cruz
365,MG,3,89,1616429739,-23.35,47.6,25.19,2.05,vangaindrano
366,IT,20,60,1616429740,46.6166,10.7002,13.0,5.14,lasa
367,IE,75,76,1616429742,52.1624,-7.1524,10.0,4.63,tramore
368,ES,20,56,1616429743,28.5004,-13.8627,20.0,5.66,puerto del rosario
369,CN,26,68,1616429744,42.5397,128.9972,-1.05,3.06,helong
370,NO,75,87,1616429746,67.667,12.6934,6.0,8.23,sorland
371,CA,90,58,1616429702,54.7682,-101.865,-6.0,3.09,flin flon
372,RU,100,98,1616429748,53.3508,102.7839,0.32,1.59,kutulik
373,MX,0,12,1616429750,21.0167,-102.1667,20.79,3.23,san julian
374,BR,55,60,1616429751,-7.3,-70.2167,30.09,1.93,envira
375,BI,92,83,1616429752,-3.9736,29.4386,24.01,1.42,rumonge
376,ZA,0,68,1616429754,-34.0033,24.7314,20.0,2.24,kruisfontein
377,US,75,100,1616429720,55.3422,-131.6461,0.0,2.06,ketchikan
378,BR,100,82,1616429756,-3.7661,-49.6725,25.9,1.17,tucurui
379,CV,75,60,1616429758,16.1833,-22.9167,23.0,7.72,sal rei
380,AF,100,64,1616429759,36.8648,70.8342,7.77,1.72,jurm
381,AX,75,70,1616429716,60.0973,19.9348,5.0,2.57,maarianhamina
382,MZ,40,74,1616429659,-23.865,35.3833,27.0,7.2,inhambane
383,PE,46,68,1616429763,-11.0964,-77.6139,25.26,4.85,hualmay
384,IT,20,43,1616429765,43.05,12.55,10.0,6.17,perugia
385,SO,22,25,1616429766,4.1213,43.8894,31.56,4.26,xuddur
386,RU,94,97,1616429767,56.0055,71.5113,-4.32,2.53,krutinka
387,UY,75,64,1616429769,-34.6667,-54.9167,23.89,7.2,maldonado
388,GT,20,65,1616429770,14.2,-91.3,31.0,1.78,nueva concepcion
389,RU,25,79,1616429772,54.4299,31.8996,-4.09,3.42,sobolevo
390,KZ,62,55,1616429773,44.1667,66.75,12.88,6.35,shieli
391,IR,40,19,1616429774,35.7178,52.065,18.0,3.09,damavand
392,IN,20,69,1616429776,17.65,83.2667,27.0,1.03,yarada
393,RU,100,95,1616429777,65.8167,87.9833,-14.28,4.21,turukhansk
394,NU,100,89,1616429779,-19.0595,-169.9187,26.0,6.17,alofi
395,RU,100,98,1616429780,55.1956,80.2811,0.5,4.57,kargat
396,TZ,20,65,1616429781,-2.7974,32.4746,27.0,4.63,ibanda
397,TG,58,47,1616429783,7.5833,0.6,32.78,1.84,badou
398,BJ,20,74,1616429784,6.4965,2.6036,30.0,7.2,porto novo
399,RU,0,70,1616429785,48.7119,45.1994,3.0,3.0,leninsk
400,PK,28,32,1616429787,28.5833,65.4167,20.07,2.2,kharan
401,US,1,68,1616429789,21.3906,-158.1547,21.67,6.38,nanakuli
402,CD,30,73,1616429790,-6.4667,16.8167,27.76,1.65,kasongo-lunda
403,PH,100,96,1616429792,17.4189,121.4443,21.68,3.16,tabuk
404,ZA,0,19,1616429793,-29.6641,22.7474,29.26,3.5,prieska
405,CN,0,49,1616429794,32.9947,112.5328,7.28,1.59,nanyang
406,ZA,0,76,1616429796,-34.0527,23.3716,18.5,6.69,plettenberg bay
407,US,1,77,1616429797,33.6668,-95.5836,16.11,6.69,lamar
408,CA,0,77,1616429799,68.3499,-133.7218,-24.0,3.6,inuvik
409,FR,75,53,1616429800,46.4154,3.9054,9.0,6.17,saint-francois
410,RU,89,95,1616429801,61.2767,108.0108,-23.12,2.31,yerbogachen
411,MG,100,83,1616429803,-14.2667,50.1667,26.29,0.57,sambava
412,US,40,48,1616429804,35.1473,-107.8514,4.0,8.75,grants
413,IN,0,70,1616429805,16.9833,73.3,26.45,4.05,ratnagiri
414,BR,14,50,1616429807,-25.1008,-52.8781,29.33,1.98,guaraniacu
415,SE,0,69,1616429808,67.8557,20.2251,-2.0,7.2,kiruna
416,MX,40,20,1616429809,27.3667,-110.1667,19.0,2.57,yaqui
417,BR,40,48,1616429811,-19.4658,-44.2467,29.0,2.06,sete lagoas
418,AR,78,43,1616429712,-26.6167,-54.1333,31.3,1.73,san vicente
419,US,75,100,1616429702,41.0586,-94.3614,8.0,6.69,creston
420,ES,75,55,1616429814,28.6585,-17.9182,19.0,3.6,los llanos de aridane
421,IN,40,88,1616429816,9.9399,76.2602,25.0,1.03,kochi
422,ID,20,78,1616429817,-6.2641,107.0712,28.33,3.6,tambun
423,CL,90,88,1616429818,-38.7,-73.1667,14.0,1.03,carahue
424,RU,91,86,1616429820,59.164,35.3285,-3.12,4.07,chagoda
425,ID,93,88,1616429821,-8.345,113.6058,25.66,0.88,ambulu
426,LK,58,84,1616429823,6.0367,80.217,26.54,3.62,galle
427,AR,0,24,1616429824,-43.3002,-65.1023,26.81,4.86,rawson
428,US,90,56,1616429809,46.5927,-112.0361,3.33,3.6,helena
429,NO,100,94,1616429827,61.9875,5.1352,7.78,10.2,raudeberg
430,GL,20,50,1616429828,60.7167,-46.0333,-3.0,0.51,qaqortoq
431,ID,65,65,1616429830,-5.6667,132.75,29.35,1.23,tual
432,SA,0,22,1616429832,26.326,43.975,31.0,2.57,buraydah
433,RU,100,93,1616429833,66.7697,123.3711,-29.64,5.22,zhigansk
434,PG,75,94,1616429834,-9.4431,147.1797,26.0,1.54,port moresby
435,TH,20,89,1616429836,6.8333,100.0,29.0,2.57,satun
436,SD,4,11,1616429837,14.2,24.6667,32.44,2.4,kutum
437,US,1,55,1616429747,33.816,-78.68,19.0,8.75,north myrtle beach
438,GA,100,83,1616429841,-1.5746,9.2618,26.86,5.27,omboue
439,RU,99,89,1616429842,55.6448,69.235,-3.28,2.69,kazanskoye
440,ID,98,84,1616429843,5.1801,97.1507,26.3,0.65,lhokseumawe
441,RU,100,90,1616429845,62.5333,155.8,-17.07,2.06,omsukchan
442,RU,100,96,1616429646,69.4058,86.1778,-16.32,4.05,dudinka
443,VE,52,65,1616429697,10.0739,-69.3228,25.0,5.66,barquisimeto
444,RU,81,93,1616429848,57.6953,93.2761,-3.01,2.68,kazachinskoye
445,NP,7,27,1616429850,27.3747,87.2039,19.08,2.01,khandbari
446,US,1,60,1616429695,32.7941,-79.8626,20.0,2.06,mount pleasant
447,ET,97,16,1616429852,9.0167,37.45,17.72,2.33,gedo
448,SL,89,66,1616429854,7.5264,-12.505,27.94,5.24,bonthe
449,CA,72,99,1616429855,51.226,-58.6502,3.11,6.43,saint-augustin
450,ID,40,100,1616429856,-0.9492,100.3543,23.0,2.06,padang
451,US,1,56,1616429858,32.0036,-80.9737,20.0,4.63,wilmington island
452,IN,39,22,1616429859,18.8486,76.5297,29.8,1.81,parli
453,LK,63,87,1616429861,5.9667,80.4167,26.0,3.03,weligama
454,CN,0,14,1616429862,36.6167,101.7667,4.27,1.27,xining
455,US,1,55,1616429646,35.3849,-77.9928,18.0,7.2,goldsboro
456,IL,99,51,1616429865,31.61,34.7642,26.11,1.34,gat
457,NG,67,39,1616429292,8.5,4.55,34.17,4.73,ilorin
458,IN,39,20,1616429867,16.8333,75.7,28.54,2.86,bijapur
459,GB,0,62,1616429868,53.6387,-1.0976,12.78,4.12,fenwick
460,AU,100,89,1616429870,-22.0016,148.0466,23.34,1.81,moranbah
461,US,1,82,1616429871,34.6391,-120.4579,11.0,3.6,lompoc
462,RU,99,91,1616429873,58.3631,82.8265,-4.59,1.68,togur
463,IN,11,75,1616429874,10.7667,79.8333,26.79,5.1,nagapattinam
464,CA,1,83,1616429876,68.2191,-135.0107,-28.0,3.09,aklavik
465,US,1,44,1616429849,37.4695,-105.87,3.0,2.2,alamosa
466,AU,99,86,1616429878,-12.0667,134.2667,26.47,1.04,maningrida
467,ER,0,18,1616429880,15.1139,37.5928,29.32,6.1,barentu
468,ZA,0,15,1616429881,-31.4707,19.776,29.66,3.46,calvinia
469,RU,87,97,1616429882,56.3724,75.2418,-4.95,2.15,muromtsevo
470,CA,20,63,1616429884,70.4692,-68.5914,-30.0,3.09,clyde river
471,CA,1,26,1616429885,45.6169,-61.3485,13.0,5.14,port hawkesbury
472,RU,97,95,1616429886,60.3725,93.0408,-9.84,2.72,severo-yeniseyskiy
473,RU,3,89,1616429888,52.4201,136.4853,-10.18,0.8,imeni poliny osipenko
474,PH,99,79,1616429889,11.1373,123.7228,27.57,8.33,sulangan
475,CA,1,32,1616429891,49.7834,-74.8492,10.0,7.2,chapais
476,CA,20,37,1616429892,46.1001,-77.4995,11.0,3.09,deep river
477,KR,17,81,1616429805,37.5683,126.9778,4.0,2.06,seoul
478,RU,5,98,1616429895,66.8333,70.8333,-20.46,2.48,yar-sale
479,RU,100,89,1616429896,61.95,159.2333,-14.84,11.59,evensk
480,PT,20,39,1616429707,38.6979,-9.4215,19.44,5.14,cascais
481,CN,0,27,1616429900,36.4989,111.7047,9.24,1.36,xinzhi
482,LR,40,70,1616429901,5.8808,-10.0467,29.0,2.06,buchanan
483,AU,90,100,1616429903,-23.7,133.8833,20.0,2.57,alice springs
484,IN,0,40,1616429904,27.0167,95.5667,19.03,1.97,khonsa
485,GB,75,93,1616429684,60.0,-1.25,8.0,9.26,sandwick
486,MU,40,83,1616429907,-20.3428,57.7575,27.22,1.54,bambous virieux
487,JP,80,69,1616429908,28.3667,129.4833,11.58,8.26,naze
488,CR,40,69,1616429833,10.0,-83.0333,28.0,1.54,limon
489,AU,34,76,1616429911,-13.8483,136.4192,28.23,3.42,alyangula
490,SB,97,82,1616429912,-10.4544,161.9205,26.23,1.39,kirakira
491,GA,40,78,1616429913,-0.7193,8.7815,27.0,3.09,port-gentil
492,CN,0,35,1616429915,39.8161,109.9776,1.76,5.2,dongsheng
493,TC,40,65,1616429752,21.4612,-71.1419,27.0,4.12,cockburn town
494,AR,0,35,1616429917,-45.8667,-67.5,23.0,4.12,comodoro rivadavia
495,KE,40,34,1616429919,1.7471,40.0573,36.0,1.54,wajir
496,US,90,73,1616429865,27.0998,-82.4543,20.0,6.17,venice
497,US,1,77,1616429651,36.8529,-75.978,14.44,5.36,virginia beach
498,MX,75,94,1616429707,23.2167,-106.4167,22.22,1.54,mazatlan
499,RU,100,95,1616429924,55.8228,45.0349,-2.21,4.17,knyaginino
500,GB,48,76,1616429732,52.2416,-3.3787,10.56,4.04,llandrindod wells
501,AR,20,53,1616429682,-31.4135,-64.1811,25.56,2.57,cordoba
502,ID,55,75,1616429827,5.8933,95.3214,29.0,3.33,sabang
503,ZA,20,24,1616429929,-29.1211,26.214,26.0,4.12,bloemfontein
504,CA,75,42,1616429930,48.9667,-57.9484,8.0,6.17,corner brook
505,CI,88,72,1616429931,4.423,-7.3528,28.87,5.42,tabou
506,MG,86,81,1616429902,-21.2167,48.3333,26.64,1.14,mananjary
507,CA,100,80,1616429702,54.0166,-124.0198,-0.89,2.64,vanderhoof
508,MM,0,33,1616429935,25.3833,97.4,23.95,1.13,myitkyina
509,BR,12,49,1616429936,-3.3783,-68.8725,32.63,1.57,sao paulo de olivenca
510,BR,0,61,1616429938,-15.9653,-54.9683,29.8,2.02,jaciara
511,DE,75,76,1616429899,52.4167,9.6,10.0,6.69,garbsen
512,US,1,39,1616429940,44.6714,-103.8522,7.0,3.09,belle fourche
513,TM,90,87,1616429942,42.0551,59.3788,6.0,7.2,akdepe
514,AU,14,77,1616429943,-33.0333,137.5833,19.0,2.06,whyalla
515,TH,96,48,1616429944,17.6667,100.5,26.12,1.68,uttaradit
516,JP,0,58,1616429946,40.5,141.5,3.89,3.13,hachinohe
517,RU,98,89,1616429947,60.3484,59.9851,-4.81,3.43,cheremukhovo
518,RU,89,96,1616429949,63.7898,74.523,-14.05,4.58,muravlenko
519,NO,75,60,1616429950,70.0311,20.9714,1.0,3.09,skjervoy
520,IR,0,11,1616429951,30.4067,55.9939,18.14,1.1,rafsanjan
521,PL,93,74,1616429953,49.8224,19.0469,3.33,2.49,bielsko-biala
522,SO,41,61,1616429954,9.4942,50.8122,26.41,4.73,bandarbeyla
523,BR,85,68,1616429955,-19.0731,-42.5464,26.87,1.4,acucena
524,PK,0,77,1616429957,25.1216,62.3254,24.27,6.76,gwadar
525,CA,1,35,1616429950,44.6453,-63.5724,15.0,4.63,halifax
526,RU,100,86,1616429959,53.5739,142.9478,-6.91,12.49,okha
527,BR,71,82,1616429961,-1.8333,-65.3667,29.03,1.82,maraa
528,NZ,15,81,1616429962,-39.8833,176.6333,13.33,0.45,otane
529,US,1,41,1616429840,35.9606,-83.9207,17.78,1.92,knoxville
530,TM,90,48,1616429965,37.4966,61.9714,17.0,3.27,murgab
531,LK,99,74,1616429966,8.5711,81.2335,27.99,5.41,trincomalee
532,MG,0,79,1616429968,-20.2833,44.2833,27.95,6.08,morondava
533,NZ,56,89,1616429970,-35.6167,174.5,15.56,1.34,ngunguru
534,CN,89,72,1616429971,46.8333,126.5,0.24,5.34,wangkui
535,US,90,87,1616429973,36.4337,-99.3904,11.0,7.2,woodward
536,ET,83,55,1616429974,6.9833,35.5833,21.86,0.3,mizan teferi
537,CL,20,51,1616429975,-45.5752,-72.0662,17.0,1.54,coihaique
538,RU,0,82,1616429977,67.45,153.6833,-21.31,2.19,srednekolymsk
539,MR,0,22,1616429773,20.5169,-13.0499,33.0,1.03,atar
540,ID,98,90,1616429979,-8.1181,111.8935,24.51,1.15,boyolangu
541,NC,72,73,1616429981,-22.6667,167.4833,23.99,7.42,vao
542,RU,56,93,1616429982,47.0511,142.0569,-7.0,2.0,kholmsk
543,US,40,93,1616429802,41.3114,-105.5911,-2.22,2.57,laramie
544,IN,32,23,1616429984,25.1833,75.8333,27.53,1.59,kota
545,US,1,66,1616429819,38.028,-121.8847,11.11,3.09,pittsburg
546,US,75,61,1616429987,39.1502,-123.2078,8.33,2.65,ukiah
547,AR,77,45,1616429988,-27.7951,-64.2615,26.99,0.37,santiago del estero
548,HT,6,69,1616429827,18.65,-74.1167,26.95,2.14,jeremie
549,CD,88,66,1616429991,-4.3167,20.5833,27.83,0.9,ilebo
550,RU,87,99,1616429992,66.5606,67.7975,-16.72,2.0,aksarka
551,US,1,76,1616429994,41.1415,-73.3579,13.89,3.6,westport
552,MX,40,25,1616429995,29.5667,-104.4167,23.0,4.12,ojinaga
553,GW,58,50,1616429996,11.2833,-15.8333,25.34,4.91,bubaque
554,AU,90,94,1616429715,-21.15,149.2,25.0,0.51,mackay
555,CG,40,66,1616429999,-4.7561,11.8578,30.0,3.7,loandjili
556,SV,0,44,1616429834,13.5928,-89.8275,28.0,1.54,acajutla
557,CL,0,50,1616430001,-20.2208,-70.1431,24.0,8.75,iquique
